,City,Country,Lat,Lng,Date,Max Temp,Humidity,Clouds,Wind Speed
0,Āreka,ET,7.0667,37.7,1624742102,60.46,97,100,4.97
1,Yeppoon,AU,-23.1333,150.7333,1624742102,55.18,94,100,10.13
2,Bambous Virieux,MU,-20.3428,57.7575,1624742103,72.21,80,31,8.46
3,Hamilton,US,39.1834,-84.5333,1624741831,88.21,61,75,1.99
4,Albany,US,42.6001,-73.9662,1624742104,83.73,67,100,11.03
5,Hilo,US,19.7297,-155.09,1624742104,83.8,65,1,10.36
6,Port Alfred,ZA,-33.5906,26.891,1624742105,57.69,73,51,16.62
7,Acapulco de Juárez,MX,16.8634,-99.8901,1624742105,80.42,74,90,4.61
8,Bulanash,RU,57.2783,61.9965,1624742106,61.61,98,42,7.54
9,Tilichiki,RU,60.4667,166.1,1624742106,52.21,80,77,4.29
10,Jamestown,US,42.097,-79.2353,1624741903,83.52,63,90,11.01
11,Vallenar,CL,-28.5708,-70.7581,1624742107,65.26,37,0,3.96
12,Ancud,CL,-41.8697,-73.8203,1624742107,45.93,76,6,5.28
13,Tamiahua,MX,21.2667,-97.45,1624742108,85.78,67,96,14.07
14,Baykit,RU,61.67,96.37,1624741558,48.97,96,100,3.83
15,Tuktoyaktuk,CA,69.4541,-133.0374,1624742109,42.3,72,22,7.45
16,Bredasdorp,ZA,-34.5322,20.0403,1624742109,56.28,81,100,6.24
17,Cape Town,ZA,-33.9258,18.4232,1624741989,57.88,68,100,1.99
18,Ribeira Grande,PT,38.5167,-28.7,1624742110,68.5,75,24,10.58
19,Wanaka,NZ,-44.7,169.15,1624742110,43.11,99,46,5.01
20,Portland,US,45.5234,-122.6762,1624741507,105.87,35,20,1.99
21,Valença,BR,-13.3703,-39.0731,1624742111,70.84,78,11,4.76
22,Rikitea,PF,-23.1203,-134.9692,1624742111,74.53,76,3,10.71
23,Salisbury,GB,51.0693,-1.7957,1624742111,63.34,76,87,6.17
24,Ushuaia,AR,-54.8,-68.3,1624742075,38.86,70,0,3.44
25,Saint-Philippe,RE,-21.3585,55.7679,1624742112,68.22,80,19,8.01
26,College,US,64.8569,-147.8028,1624742113,67.66,50,75,6.91
27,Narsaq,GL,60.9167,-46.05,1624742113,62.82,88,93,2.64
28,Hermanus,ZA,-34.4187,19.2345,1624742113,56.8,75,98,9.57
29,Kharan,PK,28.5833,65.4167,1624742114,86.49,12,0,4.72
30,Provideniya,RU,64.3833,-173.3,1624742114,47.26,83,100,10.2
31,Barrow,US,71.2906,-156.7887,1624742115,53.62,76,1,13.8
32,Esim,GH,4.8699,-2.2405,1624742116,76.19,89,100,4.52
33,Punta Arenas,CL,-53.15,-70.9167,1624742116,39.11,81,0,9.22
34,Yellowknife,CA,62.456,-114.3525,1624742064,78.57,39,8,17.0
35,Port Keats,AU,-14.25,129.55,1624742117,66.76,53,87,11.45
36,Vestmannaeyjar,IS,63.4427,-20.2734,1624742117,49.55,86,27,7.67
37,Codrington,AU,-38.2667,141.9667,1624742118,51.71,86,65,7.38
38,Constantine,DZ,36.365,6.6147,1624742118,73.36,58,83,2.68
39,Jand,PK,33.4299,72.0193,1624742119,90.63,35,31,2.55
40,Saint-Pierre,RE,-21.3393,55.4781,1624742119,69.44,73,75,5.75
41,Kaitangata,NZ,-46.2817,169.8464,1624742120,45.05,90,100,4.74
42,Butaritari,KI,3.0707,172.7902,1624742120,81.88,76,100,12.26
43,Maltahöhe,NA,-24.8333,16.9833,1624742120,53.11,23,0,4.16
44,Poum,NC,-20.2333,164.0167,1624741527,74.3,76,94,14.88
45,Airai,TL,-8.9266,125.4092,1624742121,58.41,94,89,4.34
46,Mataura,NZ,-46.1927,168.8643,1624742121,42.48,94,100,2.71
47,Quatre Cocos,MU,-20.2078,57.7625,1624742122,72.09,82,22,7.56
48,Salto,UY,-31.3833,-57.9667,1624741954,55.87,83,100,10.0
49,Bethel,US,41.3712,-73.414,1624742122,81.66,79,75,13.8
50,Longyearbyen,SJ,78.2186,15.6401,1624742123,42.64,75,0,6.91
51,Flinders,AU,-34.5833,150.8552,1624742123,51.06,71,0,3.0
52,Castro,BR,-24.7911,-50.0119,1624742124,61.5,85,0,4.7
53,Crişan,RO,44.9667,29.4667,1624742124,72.19,77,7,6.8
54,Nikolskoye,RU,59.7035,30.7861,1624742125,67.89,91,6,3.53
55,Pevek,RU,69.7008,170.3133,1624742125,42.26,59,100,10.02
56,Ternate,ID,0.8,127.4,1624742126,79.84,80,100,6.33
57,Khatanga,RU,71.9667,102.5,1624742126,48.07,49,90,6.91
58,Nome,US,64.5011,-165.4064,1624742127,56.16,71,40,16.11
59,Sydney,AU,-33.8679,151.2073,1624741982,47.39,83,20,3.0
60,Vostok,RU,46.4856,135.8833,1624742128,63.68,77,90,2.53
61,Aksu,CN,41.1231,80.2644,1624742128,75.02,29,4,7.31
62,Eureka,US,40.8021,-124.1637,1624742129,71.2,74,54,5.99
63,Hirara,JP,24.8,125.2833,1624742129,82.94,85,100,16.58
64,Kapaa,US,22.0752,-159.319,1624742129,84.52,73,1,4.0
65,Nosy Varika,MG,-20.5833,48.5333,1624742130,65.44,88,19,5.46
66,Eyl,SO,7.9803,49.8164,1624742130,78.03,76,88,23.82
67,East London,ZA,-33.0153,27.9116,1624742038,59.11,65,23,13.35
68,São José da Coroa Grande,BR,-8.8978,-35.1478,1624742131,74.57,72,91,10.2
69,Krutinka,RU,56.0055,71.5113,1624742131,54.45,76,99,7.61
70,Verāval,IN,20.9,70.3667,1624741890,83.17,75,52,14.09
71,Severo-Kuril'sk,RU,50.6789,156.125,1624742132,45.7,89,83,15.19
72,Baghdad,IQ,33.3406,44.4009,1624742101,91.31,25,0,6.91
73,Raja,SS,8.4596,25.678,1624742133,71.87,77,82,6.06
74,Tasiilaq,GL,65.6145,-37.6368,1624742133,51.96,61,3,6.17
75,Paamiut,GL,61.994,-49.6678,1624742134,43.03,98,98,9.84
76,Thompson,CA,55.7435,-97.8558,1624742039,74.79,21,99,4.65
77,Half Moon Bay,US,37.4636,-122.4286,1624742134,92.91,68,75,3.0
78,Port Elizabeth,ZA,-33.918,25.5701,1624742135,57.49,72,0,14.97
79,Puerto Ayora,EC,-0.7393,-90.3518,1624742135,78.76,89,53,5.99
80,Chokurdakh,RU,70.6333,147.9167,1624742136,61.75,52,100,9.53
81,Ukiah,US,39.1502,-123.2078,1624742136,109.04,28,1,5.75
82,Mount Isa,AU,-20.7333,139.5,1624742137,47.97,66,7,10.36
83,Yulara,AU,-25.2406,130.9889,1624742137,39.04,81,5,6.91
84,Virginia Beach,US,36.8529,-75.978,1624742137,82.45,82,90,8.05
85,Lata,PT,40.1629,-8.3327,1624742138,65.05,96,39,4.12
86,New Norfolk,AU,-42.7826,147.0587,1624742138,47.91,79,82,1.01
87,Lebu,CL,-37.6167,-73.65,1624742139,48.4,71,1,13.49
88,San Vicente,AR,-26.6167,-54.1333,1624742139,71.13,60,94,7.4
89,Hithadhoo,MV,-0.6,73.0833,1624742139,82.92,71,100,12.35
90,São Filipe,CV,14.8961,-24.4956,1624742140,77.05,81,58,5.79
91,Topaowan,CN,30.67,112.6895,1624742140,75.45,97,100,4.32
92,Bluff,NZ,-46.6,168.3333,1624742141,42.8,89,100,8.68
93,Clocolan,ZA,-28.9137,27.5656,1624742141,35.67,53,5,1.72
94,Poronaysk,RU,49.2167,143.1167,1624742142,46.38,92,100,8.03
95,Tiksi,RU,71.6872,128.8694,1624742142,34.57,87,100,6.87
96,Clyde River,CA,70.4692,-68.5914,1624742142,35.83,100,90,17.27
97,Faanui,PF,-16.4833,-151.75,1624742143,80.74,76,5,8.23
98,Reporoa,NZ,-38.4333,176.35,1624742143,58.33,98,100,7.87
99,Teguise,ES,29.0605,-13.564,1624742144,66.42,73,20,17.27
100,Andra,RU,62.5147,65.8878,1624742144,55.69,67,100,3.29
101,Qasigiannguit,GL,68.8193,-51.1922,1624742144,48.45,80,100,5.06
102,Phang Nga,TH,8.4509,98.5298,1624742145,86.83,95,60,2.64
103,Yerbogachën,RU,61.2767,108.0108,1624742145,54.43,92,100,5.03
104,Ketchikan,US,55.3422,-131.6461,1624742146,72.07,68,1,11.5
105,Kumul,CN,42.8,93.45,1624742146,79.23,21,89,6.6
106,Geraldton,AU,-28.7667,114.6,1624742147,46.81,76,0,17.27
107,Cabo San Lucas,MX,22.8909,-109.9124,1624741991,99.52,54,1,19.57
108,Jumla,NP,29.2747,82.1838,1624742147,58.17,91,85,2.13
109,Basco,PH,20.4487,121.9702,1624742148,83.93,82,98,20.31
110,Salalah,OM,17.0151,54.0924,1624742148,82.49,83,75,5.75
111,Kununurra,AU,-15.7667,128.7333,1624741927,66.18,39,100,9.22
112,Sinnamary,GF,5.3833,-52.95,1624742149,79.14,82,36,7.96
113,Vaini,TO,-21.2,-175.2,1624742149,71.76,78,20,12.66
114,Qaanaaq,GL,77.484,-69.3632,1624742150,40.75,72,13,4.59
115,Pangnirtung,CA,66.1451,-65.7125,1624742150,41.41,95,100,4.63
116,Atuona,PF,-9.8,-139.0333,1624742151,78.49,73,58,22.39
117,Asău,RO,46.4333,26.4,1624742151,70.72,93,49,4.34
118,Goderich,CA,43.7501,-81.7165,1624742113,76.03,98,100,14.88
119,Vila Velha,BR,-20.3297,-40.2925,1624742152,71.55,78,40,5.75
120,Bengkulu,ID,-3.8004,102.2655,1624742153,74.62,90,38,3.96
121,Ponta do Sol,PT,32.6667,-17.1,1624742153,70.0,74,17,3.56
122,Tuatapere,NZ,-46.1333,167.6833,1624742153,42.82,93,100,3.83
123,George Town,MY,5.4112,100.3354,1624741982,79.9,87,20,0.0
124,Peachtree City,US,33.3968,-84.5958,1624741903,88.47,69,75,0.0
125,Cherskiy,RU,68.75,161.3,1624742154,70.27,36,100,7.0
126,Lorengau,PG,-2.0226,147.2712,1624742155,80.46,79,72,4.65
127,Laurel,US,39.0993,-76.8483,1624742155,88.25,66,75,4.0
128,Port Blair,IN,11.6667,92.75,1624742155,81.16,77,97,8.63
129,Sioux City,US,42.5,-96.4003,1624742118,68.86,82,90,5.99
130,Sokoni,TZ,-6.4333,39.55,1624742156,76.62,68,0,11.92
131,Ust'-Ilimsk,RU,58.0006,102.6619,1624742157,48.4,96,6,4.88
132,Mola di Bari,IT,41.0609,17.0873,1624742157,82.9,61,2,5.23
133,Palmer,US,42.1584,-72.3287,1624741882,81.21,67,99,10.0
134,Olafsvik,IS,64.8945,-23.7142,1624742158,49.05,86,100,12.41
135,Te Anau,NZ,-45.4167,167.7167,1624742158,46.53,92,100,3.8
136,Beringovskiy,RU,63.05,179.3167,1624742159,39.78,83,17,6.02
137,Salima,MW,-13.7804,34.4587,1624742159,63.52,61,0,3.96
138,Ol'ga,RU,43.7444,135.2892,1624742160,56.77,92,57,2.73
139,Upernavik,GL,72.7868,-56.1549,1624742160,38.16,96,100,12.93
140,Grand Gaube,MU,-20.0064,57.6608,1624742161,72.37,81,1,5.01
141,Balgazyn,RU,51.0,95.2,1624742161,47.64,72,87,1.23
142,Kenai,US,60.5544,-151.2583,1624742161,57.29,58,75,9.22
143,Carnarvon,AU,-24.8667,113.6333,1624742162,46.47,56,100,5.75
144,Dikson,RU,73.5069,80.5464,1624742162,32.29,86,19,2.06
145,Saint George,US,37.1041,-113.5841,1624742163,99.95,15,1,3.0
146,Arraial do Cabo,BR,-22.9661,-42.0278,1624742163,73.26,78,0,13.8
147,Haines Junction,CA,60.7522,-137.5108,1624742164,63.88,61,99,9.53
148,Praia,CV,14.9215,-23.5087,1624742165,77.54,78,40,9.22
149,Itarema,BR,-2.9248,-39.9167,1624742165,77.7,76,2,8.75
150,Berlevåg,NO,70.8578,29.0864,1624742165,46.65,88,100,1.7
151,Inírida,CO,3.8653,-67.9239,1624742166,83.57,74,72,1.14
152,Sitka,US,57.0531,-135.33,1624742166,60.69,82,75,3.44
153,Cork,IE,51.898,-8.4706,1624742167,56.97,78,20,11.5
154,Yar-Sale,RU,66.8333,70.8333,1624742167,44.6,61,100,6.33
155,Kavieng,PG,-2.5744,150.7967,1624742168,81.36,75,100,3.94
156,Lavrentiya,RU,65.5833,-171.0,1624742168,43.83,87,100,7.92
157,Lahaina,US,20.8783,-156.6825,1624742169,86.0,72,33,5.73
158,Bemidji,US,47.4736,-94.8803,1624741944,71.89,64,40,0.0
159,Abhā,SA,18.2164,42.5053,1624741996,71.85,8,0,5.75
160,Mogadishu,SO,2.0371,45.3438,1624742088,77.23,85,46,18.19
161,Sijunjung,ID,-0.6876,100.9537,1624742170,69.58,99,48,1.36
162,Yangi Marg`ilon,UZ,40.4272,71.7189,1624742170,72.32,35,0,9.22
163,São Félix do Xingu,BR,-6.6447,-51.995,1624742170,83.08,50,66,0.16
164,Te Karaka,NZ,-38.4654,177.8679,1624742171,60.98,83,100,7.18
165,Najrān,SA,17.4924,44.1277,1624742171,83.05,12,100,3.65
166,Henties Bay,NA,-22.116,14.2845,1624741593,58.96,77,3,4.03
167,Isangel,VU,-19.55,169.2667,1624742172,75.31,78,75,5.75
168,Wagga Wagga,AU,-35.1167,147.3667,1624742172,42.6,90,55,3.2
169,Monroe,US,43.1501,-77.6831,1624742113,89.98,55,75,13.8
170,Cidreira,BR,-30.1811,-50.2056,1624742173,61.7,96,100,12.1
171,Garoowe,SO,8.4054,48.4845,1624742173,77.49,58,91,24.87
172,Bosaso,SO,11.2842,49.1816,1624742174,92.88,41,76,20.54
173,Halifax,CA,44.6453,-63.5724,1624741877,79.41,85,90,5.01
174,Lima,PE,-12.0432,-77.0282,1624742124,71.91,69,90,5.75
175,Venezuela,VE,8.0,-66.0,1624742175,89.76,49,46,10.94
176,Margate,GB,51.3813,1.3862,1624742175,63.7,97,98,4.0
177,Avarua,CK,-21.2078,-159.775,1624742175,73.45,73,20,18.41
178,Antofagasta,CL,-23.65,-70.4,1624742046,60.08,82,99,9.37
179,Corbu,RO,44.3833,28.65,1624742176,73.13,88,0,6.91
180,Štúrovo,SK,47.7949,18.7175,1624742177,73.89,77,0,3.0
181,Souillac,MU,-20.5167,57.5167,1624742177,72.36,83,75,6.91
182,San Ramon,US,37.7799,-121.978,1624742178,96.24,44,1,5.99
183,Winslow,US,35.0242,-110.6974,1624741899,89.96,16,40,1.99
184,Tabuk,PH,17.4189,121.4443,1624742178,75.43,86,70,1.77
185,Sterling,US,39.0062,-77.4286,1624742179,87.94,62,75,1.99
186,Alice Springs,AU,-23.7,133.8833,1624742157,29.75,100,0,0.0
187,Fukuechō,JP,32.6881,128.8419,1624742179,71.69,86,100,11.74
188,Kiryat Gat,IL,31.61,34.7642,1624742180,78.4,73,0,0.65
189,Plastun,RU,44.7561,136.2939,1624742180,57.81,89,70,1.48
190,Bonthe,SL,7.5264,-12.505,1624742181,78.08,83,88,5.08
191,San Patricio,US,28.017,-97.5169,1624742181,93.88,59,76,18.43
192,Gallup,US,35.5281,-108.7426,1624742006,80.44,23,1,4.0
193,Tura,IN,25.5198,90.2201,1624742182,73.45,98,95,5.28
194,Naze,JP,28.3667,129.4833,1624742182,76.51,90,100,12.37
195,Port Saint Lucie,US,27.2939,-80.3503,1624742148,86.04,78,75,5.01
196,Port Hardy,CA,50.6996,-127.4199,1624742113,73.15,68,12,2.26
197,Busselton,AU,-33.65,115.3333,1624742183,56.05,62,77,25.43
198,Verkhnevilyuysk,RU,63.4453,120.3167,1624742184,64.78,85,89,0.65
199,Praia da Vitória,PT,38.7333,-27.0667,1624742184,71.85,78,40,4.7
200,Mount Gambier,AU,-37.8333,140.7667,1624742185,44.51,100,40,4.61
201,Rawson,AR,-43.3002,-65.1023,1624742185,44.4,68,100,25.93
202,São Desidério,BR,-12.3633,-44.9733,1624742185,75.36,27,0,6.24
203,Biloela,AU,-24.4167,150.5,1624742186,51.93,72,100,10.02
204,Adrar,MR,20.5022,-10.0711,1624742186,95.52,13,5,7.31
205,Oranzherei,RU,45.8476,47.5663,1624742187,80.56,52,85,11.48
206,Lagoa,PT,39.05,-27.9833,1624742187,67.32,76,23,10.94
207,Takoradze,GH,4.8845,-1.7554,1624742187,75.47,93,100,1.7
208,Roebourne,AU,-20.7833,117.1333,1624742188,64.67,46,100,7.87
209,Komatipoort,ZA,-25.4332,31.9548,1624742189,56.05,79,0,5.03
210,Kalmunai,LK,7.4167,81.8167,1624742189,80.49,72,97,6.62
211,Ilulissat,GL,69.2167,-51.1,1624742189,48.22,71,75,5.75
212,Tahe,CN,52.3333,124.7333,1624742190,62.51,89,48,1.57
213,Port Macquarie,AU,-31.4333,152.9167,1624742190,40.37,72,0,4.59
214,Kruisfontein,ZA,-34.0033,24.7314,1624742191,52.88,80,94,10.18
215,Cayenne,GF,4.9333,-52.3333,1624742087,84.24,76,0,3.0
216,Sucúa,EC,-2.4667,-78.1667,1624742191,83.14,47,40,3.44
217,Clovis,US,36.8252,-119.7029,1624742123,106.12,29,20,3.0
218,Saint Anthony,US,45.0205,-93.218,1624742192,73.42,90,90,6.91
219,Fomboni,KM,-12.28,43.7425,1624742192,77.79,66,3,8.52
220,Krasnosel'kup,RU,65.7,82.4667,1624742193,44.13,64,12,16.91
221,Klaksvík,FO,62.2266,-6.589,1624742193,47.32,80,1,8.97
222,Bairiki Village,KI,1.3292,172.9752,1624742194,86.0,74,75,10.36
223,Beroroha,MG,-21.6667,45.1667,1624742194,60.76,47,0,0.92
224,Marawi,PH,7.9986,124.2928,1624742194,67.64,93,100,1.86
225,Vila,PT,42.0304,-8.1588,1624741606,58.75,86,100,3.49
226,Labuhan,ID,-6.8844,112.2051,1624742195,77.4,88,78,5.01
227,Afşin,TR,38.2477,36.914,1624742196,64.4,58,1,4.45
228,Aykhal,RU,66.0,111.5,1624742196,63.3,65,32,6.96
229,Soe,ID,-9.8607,124.284,1624742196,66.24,90,100,5.7
230,Puerto Suárez,BO,-18.95,-57.8,1624742197,88.36,45,0,8.05
231,Morros,BR,-9.4467,-46.3003,1624742197,78.78,34,0,2.24
232,Wukari,NG,7.85,9.7833,1624742198,76.5,85,96,6.2
233,Broome,US,42.2506,-75.833,1624742198,87.1,56,1,3.0
234,Santa Cruz de la Sierra,BO,-17.8,-63.1667,1624742150,81.86,65,75,13.8
235,Vardø,NO,70.3705,31.1107,1624742199,46.38,81,75,3.44
236,Alofi,NU,-19.0595,-169.9187,1624742199,75.09,69,35,20.71
237,Indramayu,ID,-6.3264,108.32,1624742199,78.62,83,61,6.35
238,Constitución,CL,-35.3333,-72.4167,1624742200,50.83,53,0,12.73
239,Guerrero Negro,MX,27.9769,-114.0611,1624741962,74.07,62,10,17.31
240,Tromsø,NO,69.6496,18.957,1624742200,48.85,87,75,1.01
241,Winnemucca,US,40.973,-117.7357,1624742201,91.45,17,1,3.44
242,Saint Paul Harbor,US,57.79,-152.4072,1624741914,53.11,82,90,9.22
243,Vilyuysk,RU,63.7553,121.6247,1624742202,67.32,76,39,3.2
244,Platteville,US,42.7342,-90.4785,1624742202,79.03,94,90,12.66
245,Prachuap Khiri Khan,TH,12.2167,99.75,1624742203,72.72,91,99,3.18
246,Riyadh,SA,24.6877,46.7219,1624741962,91.54,10,0,1.25
247,Uppsala County,SE,60.0,17.75,1624742203,62.42,87,21,1.14
248,Saskylakh,RU,71.9167,114.0833,1624742204,45.07,58,87,8.79
249,Chumikan,RU,54.7183,135.315,1624742204,49.17,85,21,4.61
250,Risør,NO,58.7206,9.2342,1624742205,61.29,91,100,4.38
251,Staryy Nadym,RU,65.6118,72.6842,1624742205,45.97,65,100,6.69
252,Douentza,ML,14.9951,-2.9517,1624742206,93.0,32,40,5.12
253,Sambava,MG,-14.2667,50.1667,1624742206,69.04,89,32,9.15
254,Hobart,AU,-42.8794,147.3294,1624741952,47.91,75,40,1.99
255,Makkah al Mukarramah,SA,21.4267,39.8261,1624742207,89.02,31,12,4.34
256,Ostrovnoy,RU,68.0531,39.5131,1624742207,43.88,84,76,3.69
257,Chimoré,BO,-16.9833,-65.1333,1624742208,76.24,78,100,3.13
258,Esperance,AU,-33.8667,121.9,1624742208,50.68,62,0,15.95
259,Norman Wells,CA,65.282,-126.8329,1624742209,82.08,31,76,3.4
260,Muğla Province,TR,37.2303,28.3557,1624742209,75.87,41,0,5.61
261,Port Antonio,JM,18.18,-76.4612,1624742210,84.11,67,60,8.55
262,Lakes Entrance,AU,-37.8811,147.981,1624742210,48.18,81,50,10.71
263,Wamba,NG,8.9333,8.6,1624742211,72.1,95,86,1.07
264,At-Bashi,KG,41.1702,75.8106,1624742211,51.53,48,2,1.1
265,Aksay,RU,47.26,39.87,1624742211,75.42,78,32,10.0
266,Iqaluit,CA,63.7506,-68.5145,1624742212,40.69,66,100,8.01
267,Srednekolymsk,RU,67.45,153.6833,1624742212,76.51,30,79,6.55
268,Chui,UY,-33.6971,-53.4616,1624742037,55.99,95,100,4.45
269,Liaozhong,CN,41.5061,122.7242,1624742213,68.49,95,100,8.86
270,Auki,SB,-8.7676,160.7034,1624742213,78.64,86,100,4.07
271,Taltal,CL,-25.4,-70.4833,1624742214,62.76,71,100,4.56
272,Porbandar,IN,21.6422,69.6093,1624742214,84.52,64,75,12.71
273,Nanortalik,GL,60.1432,-45.2371,1624742215,48.07,85,100,3.62
274,Saint-Joseph,RE,-21.3667,55.6167,1624742215,68.36,79,9,5.32
275,Dawson Creek,CA,55.7666,-120.2362,1624742215,83.37,51,11,5.39
276,Sharjah city,AE,25.3573,55.4033,1624742216,94.98,39,0,2.3
277,Madridejos,ES,39.4682,-3.532,1624742216,81.25,26,0,10.71
278,Kamenka,RU,51.3223,42.7678,1624742217,70.59,71,74,10.49
279,Baiyin,CN,36.5583,104.2081,1624742218,63.48,55,60,2.64
280,Priladozhskiy,RU,59.85,31.4833,1624742218,67.66,89,8,5.7
281,Datong,CN,40.0936,113.2914,1624742218,71.65,45,52,3.94
282,Coahuayana Viejo,MX,18.7333,-103.6833,1624742219,83.68,92,100,7.05
283,Laguna,US,38.421,-121.4238,1624742219,103.44,35,1,3.0
284,Emerald,AU,-23.5333,148.1667,1624742220,48.34,73,0,14.32
285,Ingham,US,42.6,-84.3833,1624742220,80.78,84,75,13.8
286,Mahébourg,MU,-20.4081,57.7,1624742221,72.25,83,75,6.91
287,Sārangarh,IN,21.6,83.0833,1624742221,84.65,68,50,2.68
288,Lianzhou,CN,24.7811,112.3825,1624742222,75.78,98,100,2.95
289,Mahajanga,MG,-15.7167,46.3167,1624742222,66.22,94,20,3.44
290,Moose Factory,CA,51.2585,-80.6094,1624742222,73.63,46,100,8.05
291,Skjervøy,NO,70.0311,20.9714,1624742223,47.86,84,100,5.64
292,Vanimo,PG,-2.6741,141.3028,1624742223,76.06,90,97,5.53
293,Bam,IR,29.106,58.357,1624742224,84.79,14,0,7.9
294,Vila Franca do Campo,PT,37.7167,-25.4333,1624742224,68.41,90,69,8.79
295,Bongandanga,CD,1.5,21.05,1624742224,77.34,63,67,2.84
296,Mahabad,IR,36.7631,45.7222,1624742225,77.32,15,75,7.94
297,Rome,US,43.2128,-75.4557,1624742225,89.46,56,20,11.5
298,Assiut,EG,27.181,31.1837,1624742226,88.16,25,0,6.8
299,Bodden Town,KY,19.2833,-81.25,1624742226,87.8,47,20,5.99
300,Kihurio,TZ,-4.4667,38.0667,1624742227,63.1,85,0,1.25
301,Comodoro Rivadavia,AR,-45.8667,-67.5,1624742227,44.46,61,20,8.05
302,Bārāmati,IN,18.15,74.5833,1624742228,76.08,70,100,11.48
303,Hīrāpur Hamesha,IN,21.5333,79.7667,1624742228,80.71,75,100,1.97
304,Poplar Bluff,US,36.757,-90.3929,1624741980,91.18,60,40,4.0
305,Saldanha,ZA,-33.0117,17.9442,1624742229,54.77,77,60,8.25
306,Buala,SB,-8.145,159.5921,1624742229,80.64,81,87,7.61
307,Ahipara,NZ,-35.1667,173.1667,1624742230,61.86,84,100,13.82
308,Prieska,ZA,-29.6641,22.7474,1624742230,42.93,68,22,4.27
309,Lillooet,CA,50.6856,-121.942,1624741987,103.23,23,8,1.79
310,Rocha,UY,-34.4833,-54.3333,1624741948,54.32,96,94,5.35
311,São Miguel do Araguaia,BR,-13.275,-50.1628,1624742231,81.23,25,3,3.36
312,Burla,IN,21.5,83.8667,1624742232,82.29,74,100,2.77
313,Samarai,PG,-10.6167,150.6667,1624742232,79.43,84,84,9.31
314,Kumluca,TR,36.3703,30.2869,1624742233,83.89,46,0,6.6
315,Hualmay,PE,-11.0964,-77.6139,1624742233,66.87,73,7,10.0
316,Leningradskiy,RU,69.3833,178.4167,1624742234,50.83,50,94,1.52
317,Mar del Plata,AR,-38.0023,-57.5575,1624741998,53.01,60,90,2.3
318,Yārāda,IN,17.65,83.2667,1624742234,82.72,83,75,2.3
319,Upata,VE,8.0086,-62.3989,1624742235,77.2,85,85,5.08
320,Agía Galíni,GR,35.1,24.6833,1624742235,87.75,39,0,4.7
321,Smithers,CA,54.7804,-127.1743,1624742011,90.81,34,13,1.28
322,Rosarito,MX,32.3333,-117.0333,1624742236,91.94,63,20,11.72
323,Viedma,AR,-40.8135,-62.9967,1624742236,46.87,69,77,20.54
324,Northam,GB,51.0333,-4.2167,1624742237,62.29,85,97,3.11
325,Malé,MV,4.1748,73.5089,1624742237,82.74,72,100,12.39
326,Dunedin,NZ,-45.8742,170.5036,1624741975,49.8,93,98,4.0
327,Brecksville,US,41.3198,-81.6268,1624742238,86.13,67,94,5.01
328,Port-Gentil,GA,-0.7193,8.7815,1624742238,76.05,84,100,11.45
329,Wanning,CN,18.8003,110.3967,1624742239,81.5,89,100,9.73
330,Kutum,SD,14.2,24.6667,1624742239,83.5,18,6,5.06
331,Saint-François,FR,46.4154,3.9054,1624742240,65.64,72,0,5.75
332,Bar Harbor,US,44.3876,-68.2039,1624742240,73.35,90,100,12.46
333,Ballina,AU,-28.8667,153.5667,1624742241,47.95,83,43,8.39
334,Launceston,AU,-41.45,147.1667,1624742241,43.81,94,12,4.0
335,Rincon,US,32.296,-81.2354,1624742070,86.18,69,75,14.97
336,Dunmore Town,BS,25.5,-76.65,1624742242,81.32,73,13,15.43
337,Ojinaga,MX,29.5667,-104.4167,1624742242,104.95,21,1,10.36
338,Petatlán,MX,17.5167,-101.2667,1624742243,76.8,92,100,7.14
339,Athabasca,CA,54.7169,-113.2854,1624742243,84.87,43,22,15.57
340,Talnakh,RU,69.4865,88.3972,1624742244,47.07,66,100,7.18
341,Nara,JP,34.6851,135.8049,1624742244,72.25,86,100,3.24
342,Umm Kaddadah,SD,13.6017,26.6876,1624742245,94.59,14,56,11.72
343,Boyolangu,ID,-8.1181,111.8935,1624742245,74.28,94,67,0.89
344,Corinth,GR,37.9407,22.9573,1624742245,86.76,65,7,1.83
345,Flagstaff,US,35.1981,-111.6513,1624742246,84.88,22,20,3.44
346,Santa Rosa,PH,14.3122,121.1114,1624742246,83.1,87,95,2.64
347,Coquimbo,CL,-29.9533,-71.3436,1624741996,58.73,72,20,10.36
348,Goúmero,GR,37.7667,21.6167,1624742247,77.85,38,0,4.83
349,Selikhino,RU,50.3672,137.4996,1624742247,56.48,96,99,5.44
350,Beloha,MG,-25.1667,45.05,1624742248,63.16,80,3,3.96
351,Ituango,CO,7.1712,-75.764,1624742248,70.83,77,90,2.8
352,Bluefields,NI,12.0137,-83.7635,1624742249,77.68,88,99,7.92
353,Touros,BR,-5.1989,-35.4608,1624742126,79.7,75,23,20.2
354,Wajid,SO,3.8093,43.2471,1624742249,73.04,70,67,19.82
355,Qaqortoq,GL,60.7167,-46.0333,1624742250,63.1,88,91,2.68
356,Erenhot,CN,43.6475,111.9767,1624742250,71.8,47,7,7.76
357,Oodweyne,SO,9.4092,45.064,1624742250,74.64,54,99,17.98
358,Bandar-e Anzali,IR,37.4727,49.4622,1624742251,78.8,69,0,4.12
359,Port Lincoln,AU,-34.7333,135.8667,1624742251,54.21,88,11,8.5
360,Witu,KE,-2.3889,40.4382,1624742252,75.36,77,96,12.93
361,Bilibino,RU,68.0546,166.4372,1624742252,65.34,31,100,1.03
362,Imeni Stepana Razina,RU,54.8932,44.2963,1624742253,63.93,92,96,2.59
363,Toamasina,MG,-18.1667,49.3833,1624742253,66.54,90,26,3.8
364,Sur,OM,22.5667,59.5289,1624742254,85.5,56,0,18.41
365,Gigmoto,PH,13.7796,124.39,1624742254,80.65,82,78,4.45
366,Kahului,US,20.8947,-156.47,1624742254,86.02,64,40,12.66
367,Matara,LK,5.9485,80.5353,1624742255,76.96,89,100,11.32
368,Kibara,TZ,-2.15,33.45,1624742255,72.21,63,44,5.61
369,Luena,AO,-11.7833,19.9167,1624742256,55.9,50,0,2.84
370,Zhezkazgan,KZ,47.8043,67.7144,1624742257,68.88,40,73,11.27
371,Banjar,ID,-8.19,114.9675,1624742257,80.46,90,100,3.13
372,Jinchang,CN,38.4953,102.1739,1624742258,68.56,57,0,3.85
373,Caxito,AO,-8.5785,13.6643,1624742258,70.16,95,52,0.65
374,Shadrinsk,RU,56.0852,63.6335,1624742259,62.22,95,32,5.08
375,Tessalit,ML,20.1986,1.0114,1624742259,97.57,6,0,8.79
376,Santa Cecília,BR,-26.9608,-50.4269,1624742260,56.5,95,48,3.02
377,Sawtell,AU,-30.3833,153.1,1624742261,44.19,93,0,4.61
378,Manzhouli,CN,49.6,117.4333,1624742261,63.28,87,56,3.38
379,Qui Nhon,VN,13.7667,109.2333,1624742261,80.82,73,53,3.13
380,Itoman,JP,26.1247,127.6694,1624742262,81.37,94,75,9.22
381,Arkhara,RU,49.4212,130.0842,1624742262,65.97,81,32,1.59
382,Pontianak,ID,-0.0333,109.3333,1624742263,76.98,94,75,3.44
383,Fortuna,US,40.5982,-124.1573,1624742264,70.93,71,1,1.99
384,Tongchuanshi,CN,35.0806,109.0897,1624742264,71.8,65,45,3.44
385,Kuznechnoye,RU,61.12,29.8686,1624742264,66.69,95,1,2.8
386,Āsmār,AF,35.0333,71.3581,1624742265,73.99,55,55,5.37
387,Itaporanga,BR,-7.3044,-38.1503,1624741980,79.14,39,6,11.39
388,São João da Barra,BR,-21.6403,-41.0511,1624742266,71.69,73,10,12.48
389,Morondava,MG,-20.2833,44.2833,1624742266,65.19,70,0,8.12
390,Zbarazh,UA,49.6636,25.7762,1624742266,62.1,96,6,7.02
391,San Cristobal,VE,7.7669,-72.225,1624742016,75.38,75,68,3.65
392,Koslan,RU,63.4564,48.8989,1624742267,60.31,79,99,3.58
393,Amapá,BR,1.0,-52.0,1624742267,77.67,79,100,2.44
394,Scarborough,GB,54.2797,-0.4044,1624742268,58.66,86,39,1.99
395,Magalia,US,39.8121,-121.5783,1624742206,104.54,11,0,9.75
396,Poninka,UA,50.1849,27.5363,1624742269,62.37,95,56,2.75
397,Piaçabuçu,BR,-10.4056,-36.4344,1624742269,73.56,76,75,8.37
398,Dingle,PH,10.9995,122.6711,1624742269,76.32,89,100,3.76
399,Waingapu,ID,-9.6567,120.2641,1624742270,77.29,86,100,7.49
400,Uspenka,UA,48.3903,39.1619,1624742270,68.9,89,79,5.1
401,Regina,CA,50.4501,-104.6178,1624742271,81.16,53,83,11.99
402,Smoky Lake,CA,54.1169,-112.4686,1624742045,83.57,42,14,15.61
403,Bugul'ma,RU,54.55,52.8,1624742271,65.82,79,29,3.42
404,St. George's,GD,12.0564,-61.7485,1624742272,83.88,74,75,25.32
405,Rafrāf,TN,37.1904,10.1837,1624742272,88.11,65,100,9.62
406,Hong Kong,HK,22.2855,114.1577,1624742183,86.38,91,97,1.01
407,Kathu,TH,7.9178,98.3332,1624742273,86.63,75,19,10.09
408,Tete,MZ,-16.1564,33.5867,1624742273,68.09,49,0,4.61
409,Taoudenni,ML,22.6783,-3.9836,1624742274,104.76,8,2,8.48
410,Celestún,MX,20.8667,-90.4,1624742274,83.89,66,96,6.71
411,Sola,VU,-13.8833,167.55,1624742275,77.67,89,75,0.0
412,Date,JP,42.4681,140.8681,1624742275,64.13,84,1,0.27
413,Mansôa,GW,12.0733,-15.3189,1624742275,73.6,91,100,3.78
414,Eminabad,PK,32.0422,74.2594,1624742111,82.51,43,38,3.53
415,Taicheng,CN,38.731,113.228,1624742276,64.96,64,34,3.87
416,Malambo,CO,10.8595,-74.7739,1624742236,87.94,62,40,5.75
417,Havøysund,NO,70.9963,24.6622,1624742277,45.48,86,100,3.27
418,Swan Hill,AU,-35.3378,143.5544,1624742278,48.27,78,92,7.34
419,Batticaloa,LK,7.7102,81.6924,1624742056,80.47,70,99,7.54
420,Paita,PE,-5.0892,-81.1144,1624742278,75.76,74,21,14.74
421,Pacific Grove,US,36.6177,-121.9166,1624742192,95.61,80,40,1.01
422,Buncrana,IE,55.1333,-7.45,1624742279,49.03,89,100,4.94
423,Simões,BR,-7.5989,-40.8178,1624742279,78.42,37,9,7.45
424,Belyy Yar,RU,53.6039,91.3903,1624742280,49.89,87,0,2.24
425,Karratha,AU,-20.7377,116.8463,1624742280,64.04,47,100,6.87
426,Faya,SA,18.3851,42.4509,1624742281,72.12,16,99,5.26
427,Eenhana,NA,-17.4667,16.3333,1624742281,56.95,34,12,2.91
428,Maceió,BR,-9.6658,-35.7353,1624742018,76.44,69,0,4.61
429,Sisimiut,GL,66.9395,-53.6735,1624742282,44.83,80,100,3.58
430,Duma,CN,34.7653,108.135,1624742283,66.22,70,63,4.5
431,Sibu,MY,2.3,111.8167,1624742283,77.31,94,40,2.3
432,Avera,US,33.194,-82.5271,1624742283,89.74,51,61,10.38
433,Antsirabe,MG,-19.85,47.0333,1624742284,48.33,80,4,3.36
434,Fairbanks,US,64.8378,-147.7164,1624742101,67.6,50,90,3.0
435,Monaco-Ville,FR,43.731,7.4248,1624742285,73.44,80,0,1.14
436,Omboué,GA,-1.5746,9.2618,1624742285,73.62,90,98,7.36
437,Los Palacios,CU,22.5872,-83.2486,1624742285,84.99,66,100,7.94
438,Havre-St-Pierre,CA,50.2334,-63.5986,1624742286,61.81,81,88,4.36
439,Fayaoué,NC,-20.65,166.5333,1624742286,75.34,68,61,16.98
440,Lubango,AO,-14.9172,13.4925,1624742128,57.81,36,10,3.42
441,Zhigansk,RU,66.7697,123.3711,1624742287,60.73,82,100,6.76
442,Chute-aux-Outardes,CA,49.1168,-68.399,1624742287,58.71,97,100,5.39
443,Bay Roberts,CA,47.5999,-53.2648,1624742288,69.66,63,100,10.0
444,Kurumkan,RU,54.3,110.3,1624742288,61.36,74,75,1.95
445,Balkhash,KZ,46.844,74.9804,1624742289,62.17,50,1,10.76
446,Calama,CL,-22.4667,-68.9333,1624742289,61.29,9,0,17.27
447,Bathsheba,BB,13.2167,-59.5167,1624742290,84.81,58,20,20.71
448,Hov,NO,60.6987,10.3519,1624742290,66.65,72,100,3.87
449,Karachi,PK,24.9056,67.0822,1624742200,85.82,66,40,11.5
450,Camacha,PT,33.0833,-16.3333,1624742291,66.52,68,75,9.22
451,Gouyave,GD,12.1646,-61.7296,1624742292,83.17,74,75,25.32
452,Iranshahr,IR,27.2025,60.6848,1624742292,91.74,12,0,4.61
453,Muisne,EC,0.6,-80.0333,1624742293,80.71,81,96,10.92
454,Kavaratti,IN,10.5669,72.642,1624742293,82.17,75,72,14.99
455,Bowen,AU,-20.0167,148.2333,1624742293,65.46,83,100,8.77
456,Dubrovnik,HR,42.6481,18.0922,1624742294,82.04,36,0,4.61
457,Krasnyy Yar,RU,46.5331,48.3456,1624742294,80.53,44,18,9.26
458,Roald,NO,62.5833,6.1333,1624742295,58.15,62,0,10.36
459,Carbonia,IT,39.1672,8.5222,1624742295,75.99,59,1,6.2
460,Dubbo,AU,-32.25,148.6167,1624742296,37.53,93,40,0.0
461,Ranong,TH,9.9658,98.6348,1624742296,78.76,86,100,6.91
462,Akdağmadeni,TR,39.6603,35.8836,1624742297,58.12,86,2,4.0
463,Tautira,PF,-17.7333,-149.15,1624742297,86.02,77,0,6.69
464,Medicine Hat,CA,50.0501,-110.6683,1624742025,89.22,29,5,3.0
465,Sioux Lookout,CA,50.1001,-91.917,1624742298,79.11,37,91,2.59
466,Xining,CN,36.6167,101.7667,1624742298,57.16,89,66,2.75
467,Yakeshi,CN,49.2833,120.7333,1624742299,59.02,91,10,2.53
468,Meulaboh,ID,4.1363,96.1285,1624742299,75.11,91,95,6.13
469,Amahai,ID,-3.3333,128.9167,1624742300,76.78,88,52,3.69
470,Gazli,UZ,40.1333,63.45,1624742300,81.48,18,0,8.28
471,Tsarychanka,UA,48.937,34.4786,1624742301,73.4,76,26,9.19
472,Saquarema,BR,-22.92,-42.5103,1624742241,75.22,82,10,14.81
473,Dolores,AR,-36.3132,-57.6792,1624742302,43.02,91,100,13.76
474,Broken Hill,AU,-31.95,141.4333,1624742302,41.63,79,0,3.31
475,Jerome,US,42.7241,-114.5186,1624742228,88.63,23,1,12.66
476,Ponta Delgada,PT,37.7333,-25.6667,1624742303,68.72,88,20,11.5
477,Malakal,SS,9.5334,31.6605,1624742303,80.33,64,100,2.77
478,Zhuhai,CN,22.2769,113.5678,1624742304,86.11,89,40,11.5
479,Assiniboia,CA,49.6334,-105.9845,1624742304,74.62,46,81,11.95
480,Inuvik,CA,68.3499,-133.7218,1624742042,63.5,46,88,5.59
481,Bataiporã,BR,-22.2953,-53.2711,1624742305,75.96,41,27,4.07
482,Grindavik,IS,63.8424,-22.4338,1624742305,51.75,93,90,16.11
483,Wahpeton,US,46.2652,-96.6059,1624742306,76.77,75,100,3.02
484,Slonim,BY,53.0867,25.3219,1624742306,63.66,92,100,9.62
485,Luquillo,PR,18.3725,-65.7166,1624742306,83.8,94,20,3.44
486,Metković,HR,43.0542,17.6483,1624742307,77.47,54,10,2.66
487,Naliya,IN,23.2667,68.8333,1624742307,83.28,67,99,14.34
488,Sayyan,YE,15.1718,44.3244,1624742308,67.14,37,85,1.41
489,Petropavl,KZ,54.8753,69.1628,1624742308,63.55,60,100,9.51
490,Nizwá,OM,22.9333,57.5333,1624742309,84.81,45,28,3.69
491,Suntar,RU,62.1444,117.6319,1624742309,65.52,69,100,3.36
492,Okha,RU,53.5739,142.9478,1624742310,48.38,78,14,10.18
493,Neepawa,CA,50.2289,-99.4664,1624742311,75.81,56,29,8.99
494,Galveston,US,29.3669,-94.9669,1624742311,93.31,71,1,8.01
495,Talcahuano,CL,-36.7167,-73.1167,1624742100,51.48,58,20,9.22
496,Spring Valley,US,36.108,-115.245,1624742312,107.89,11,20,1.99
497,Sal Rei,CV,16.1833,-22.9167,1624742312,75.76,86,32,8.79
498,Nurota,UZ,40.5614,65.6886,1624742312,73.49,23,0,8.79
499,Podyuga,RU,61.095,40.8647,1624742313,66.15,96,62,2.1
500,Belebey,RU,54.1167,54.1167,1624742313,67.95,89,100,3.98
501,Opelousas,US,30.5335,-92.0815,1624742138,87.8,66,40,5.75
502,Namatanai,PG,-3.6667,152.4333,1624742314,79.48,79,99,4.07
503,Sørland,NO,67.667,12.6934,1624742314,50.04,83,97,30.6
504,Daşoguz,TM,41.8363,59.9666,1624742315,76.95,33,0,6.91
505,Alyangula,AU,-13.8483,136.4192,1624742315,71.22,70,100,19.37
506,Sokółka,PL,53.4072,23.5023,1624742316,64.65,93,93,7.43
507,Cam Ranh,VN,11.9214,109.1591,1624742316,80.56,78,20,11.5
508,Ust-Tsilma,RU,65.441,52.1498,1624742316,60.89,61,100,7.9
509,Iquique,CL,-20.2208,-70.1431,1624742317,62.64,75,100,9.37
510,Esik,KZ,43.3552,77.4525,1624742317,53.02,64,40,5.93
511,Dogondoutchi,NE,13.6393,4.0287,1624742318,96.15,31,16,12.24
512,Petropavlovsk-Kamchatskiy,RU,53.0452,158.6483,1624742318,48.79,100,20,4.47
513,Charters Towers,AU,-20.1,146.2667,1624742318,57.63,91,100,11.05
514,Prince Rupert,CA,54.3161,-130.3201,1624742319,71.11,72,33,5.17
515,Opuwo,NA,-18.0607,13.84,1624742319,61.29,30,5,4.74
516,Coyhaique,CL,-45.5752,-72.0662,1624742320,36.21,80,20,0.0
517,Torbay,CA,47.6666,-52.7314,1624742320,68.88,70,91,11.74
518,North Bend,US,43.4065,-124.2243,1624742321,89.24,80,1,12.66
519,Nhamundá,BR,-2.1861,-56.7131,1624742321,82.96,68,80,2.66
520,Sohag,EG,26.557,31.6948,1624742321,87.91,22,0,7.31
521,Tahoua,NE,14.8888,5.2692,1624742322,93.18,40,80,9.22
522,Bushehr,IR,28.9684,50.8385,1624742322,86.09,74,0,6.91
523,Yurgamysh,RU,55.3714,64.4656,1624742323,59.92,94,17,5.12
524,Gamba,GA,-2.65,10.0,1624742323,72.18,94,89,5.57
525,Tulun,RU,54.5611,100.5792,1624742324,48.87,87,96,1.72
526,Beeville,US,28.4008,-97.7483,1624742324,94.28,62,40,12.66
527,Mahanoro,MG,-19.9,48.8,1624742325,65.16,90,5,5.01
528,Hanmer Springs,NZ,-42.5167,172.8167,1624742325,50.25,89,84,7.11
529,Mossamedes,AO,-15.1961,12.1522,1624742325,67.15,84,29,5.39
530,Langham,CA,52.3668,-106.9679,1624742326,86.02,37,65,8.48
531,Carmelo,UY,-33.9892,-58.2856,1624742173,48.15,87,88,23.02
532,Derzhavīnsk,KZ,51.1,66.3167,1624742326,64.63,50,74,9.42
533,Tshela,CD,-4.9833,12.9333,1624742327,70.12,98,16,2.15
534,Barabai,ID,-2.5833,115.3833,1624742327,72.57,96,69,1.34
535,Otjiwarongo,NA,-20.4637,16.6477,1624742328,51.94,44,0,5.03
536,Cañita,PA,9.2097,-78.8811,1624742328,84.74,85,100,5.5
537,Mnogovershinnyy,RU,53.9353,139.9242,1624742328,55.99,71,7,0.94
538,Cockburn Town,TC,21.4612,-71.1419,1624742329,80.87,76,3,13.11
539,Whitehorse,CA,60.7161,-135.0538,1624742329,73.02,46,99,11.99
540,Coihueco,CL,-36.6167,-71.8333,1624742330,47.14,66,0,10.36
541,Mahendranagar,NP,28.9167,80.3333,1624742330,80.56,70,65,4.07
542,Morant Bay,JM,17.8815,-76.4093,1624742331,83.82,70,30,8.52
543,Matamoros,MX,25.5333,-103.25,1624742331,96.91,25,40,11.5
544,Muroto-misakicho,JP,33.2833,134.15,1624742331,72.07,84,100,8.77
545,Humberto de Campos,BR,-2.5983,-43.4611,1624742332,76.86,82,70,4.27
546,Padang,ID,-0.9492,100.3543,1624742332,76.08,88,86,3.67
547,Marstal,DK,54.8562,10.5173,1624742333,62.46,83,7,6.93
548,Saravena,CO,6.9538,-71.8752,1624742333,81.55,76,93,0.69
549,Korem,ET,12.5058,39.5228,1624742333,63.01,55,30,6.67
550,Ventspils,LV,57.3894,21.5606,1624742334,64.33,88,20,2.3
551,Alta Floresta,BR,-9.8756,-56.0861,1624742334,80.62,54,80,1.3
552,Agra,IN,27.1833,78.0167,1624742335,93.81,39,99,9.04
553,Bintulu,MY,3.1667,113.0333,1624742335,73.81,100,40,1.14
554,Puerto Ayacucho,VE,5.6639,-67.6236,1624742336,85.84,70,63,0.92
555,Ajdabiya,LY,30.7554,20.2263,1624742336,86.23,31,0,11.59
556,Puerto del Rosario,ES,28.5004,-13.8627,1624742336,69.55,83,20,16.11
557,Kuril'sk,RU,45.2333,147.8833,1624742337,52.12,96,99,1.03
558,Stornoway,GB,58.2093,-6.3865,1624742337,53.92,76,93,4.61
559,Bogorodskoye,RU,56.55,37.8833,1624742338,69.57,75,84,2.01
560,Martapura,ID,-3.4167,114.85,1624742338,75.29,100,74,2.3
561,Mersing,MY,2.4312,103.8405,1624742339,75.11,94,10,3.44
562,Orthez,FR,43.4884,-0.7724,1624742339,64.33,96,100,4.25
563,Shar,KZ,49.5886,81.0453,1624742340,51.33,80,6,2.24
564,Ipixuna,BR,-1.7625,-48.8043,1624742340,76.95,92,100,4.05
