City,Cloudiness,Country,Date,Humidity,Lat,Lng,Max Temp,Wind Speed
kapaa,1,US,1624738885,72,22.0752,-159.319,84.52,1.01
torbay,75,CA,1624738886,57,47.6666,-52.7314,71.89,21.85
comarapa,68,BO,1624738886,76,-17.9,-64.4833,61.36,6.91
meulaboh,99,ID,1624738826,91,4.1363,96.1285,75.33,5.39
hermanus,100,ZA,1624738887,75,-34.4187,19.2345,56.8,11.03
mataura,100,NZ,1624738887,94,-46.1927,168.8643,42.48,3.15
fortuna,1,US,1624738888,77,40.5982,-124.1573,99.19,14.97
svetlogorsk,100,BY,1624738888,97,52.6333,29.7333,63.55,4.23
rikitea,1,PF,1624738889,77,-23.1203,-134.9692,74.32,10.89
tuktoyaktuk,40,CA,1624738889,66,69.4541,-133.0374,50.0,9.22
sorland,96,NO,1624738890,83,67.667,12.6934,49.89,29.1
cabo san lucas,1,MX,1624738802,45,22.8909,-109.9124,98.51,9.22
belmonte,13,BR,1624738724,65,-15.8631,-38.8828,77.0,9.82
yar-sale,100,RU,1624738890,59,66.8333,70.8333,44.85,6.6
oistins,40,BB,1624738891,58,13.0667,-59.5333,84.29,20.71
atuona,46,PF,1624738891,78,-9.8,-139.0333,78.01,20.15
bluff,100,NZ,1624738892,88,-46.6,168.3333,42.8,8.77
saint-leu,0,RE,1624738892,91,-21.15,55.2833,67.06,4.36
half moon bay,75,US,1624738893,68,37.4636,-122.4286,90.75,1.99
slave lake,1,CA,1624738893,61,55.2834,-114.769,78.78,8.05
ushuaia,0,AR,1624738893,70,-54.8,-68.3,38.86,0.0
nyurba,21,RU,1624738894,85,63.2842,118.3319,63.16,1.72
olinda,20,BR,1624738646,65,-8.0089,-34.8553,76.73,14.97
nouadhibou,3,MR,1624738894,78,20.931,-17.0347,69.78,20.71
pierre,20,US,1624738846,73,44.3683,-100.351,81.52,8.01
albany,100,US,1624738895,68,42.6001,-73.9662,84.31,11.03
longyearbyen,0,SJ,1624738896,75,78.2186,15.6401,42.64,11.5
norfolk,20,US,1624738609,75,42.1668,-71.2495,84.87,1.99
lazaro cardenas,100,MX,1624738896,91,17.9583,-102.2,73.26,11.65
sitka,75,US,1624738897,82,57.0531,-135.33,60.69,5.75
thinadhoo,96,MV,1624738897,73,0.5333,72.9333,82.08,10.07
saurimo,0,AO,1624738898,42,-9.6608,20.3916,65.03,5.12
hobart,40,AU,1624738898,75,-42.8794,147.3294,48.92,3.0
acapulco,90,MX,1624738751,88,16.8634,-99.8901,76.82,9.22
dalupirip,82,PH,1624738899,82,16.3258,120.7256,74.12,4.14
puerto ayora,51,EC,1624738899,83,-0.7393,-90.3518,80.56,7.0
sao joao da barra,10,BR,1624738899,71,-21.6403,-41.0511,73.49,12.97
strai,20,NO,1624738900,63,58.2,7.9,65.1,4.0
saskylakh,93,RU,1624738900,59,71.9167,114.0833,44.49,8.28
sept-iles,75,CA,1624738639,77,50.2001,-66.3821,66.72,9.22
dunmore town,12,BS,1624738901,73,25.5,-76.65,81.36,14.16
kashi,0,CN,1624738901,12,39.4547,75.9797,81.61,17.9
thompson,40,CA,1624738902,35,55.7435,-97.8558,69.96,5.75
dzhankoy,99,UA,1624738902,80,45.7167,34.4,69.67,7.99
itarema,3,BR,1624738903,72,-2.9248,-39.9167,80.15,9.86
bethel,98,US,1624738903,84,41.3712,-73.414,81.95,1.01
avarua,40,CK,1624738903,64,-21.2078,-159.775,75.25,21.85
jamestown,90,US,1624738904,62,42.097,-79.2353,85.32,8.01
komsomolskiy,0,UZ,1624738904,35,40.4272,71.7189,72.82,6.91
marawi,100,PH,1624738905,94,7.9986,124.2928,67.64,2.08
tyulgan,22,RU,1624738905,81,52.3405,56.166,66.49,4.88
kruisfontein,92,ZA,1624738905,75,-34.0033,24.7314,52.88,14.0
gravdal,80,NO,1624738906,83,68.1214,13.5031,49.46,24.27
barrow,40,US,1624738906,67,71.2906,-156.7887,57.22,18.41
constitucion,0,CL,1624738907,49,-35.3333,-72.4167,52.21,12.41
ponta do sol,21,PT,1624738620,72,32.6667,-17.1,72.01,2.93
manuk mangkaw,31,PH,1624738907,71,4.8,119.85,83.39,3.15
olafsvik,100,IS,1624738907,81,64.8945,-23.7142,50.05,13.4
grootfontein,5,NA,1624738908,38,-19.5667,18.1167,56.77,4.61
carnarvon,100,AU,1624738908,54,-24.8667,113.6333,64.24,12.37
codrington,57,AU,1624738909,87,-38.2667,141.9667,51.37,7.94
sinjai,100,ID,1624738909,92,-5.1241,120.253,74.37,3.49
port alfred,27,ZA,1624738910,69,-33.5906,26.891,59.04,20.76
itabira,1,BR,1624738910,62,-19.6192,-43.2269,67.05,4.43
honningsvag,100,NO,1624738911,91,70.9821,25.9704,45.14,1.16
nyimba,2,ZM,1624738911,50,-14.5566,30.8149,63.41,5.23
ilulissat,75,GL,1624738912,66,69.2167,-51.1,48.22,9.22
isangel,7,VU,1624738912,72,-19.55,169.2667,73.71,13.67
effium,97,NG,1624738912,85,6.6292,8.0593,74.86,5.48
yellowknife,40,CA,1624738811,38,62.456,-114.3525,79.32,17.27
aksu,5,CN,1624738913,30,41.1231,80.2644,75.36,6.2
kodiak,90,US,1624738914,87,57.79,-152.4072,51.31,6.91
van buren,40,US,1624738914,56,35.4368,-94.3483,91.44,3.0
nikolskoye,8,RU,1624738915,90,59.7035,30.7861,69.69,3.98
lebu,1,CL,1624738915,71,-37.6167,-73.65,49.26,14.14
chapais,100,CA,1624738663,97,49.7834,-74.8492,64.18,6.78
saint peter,23,BB,1624738915,70,13.25,-59.6167,82.96,20.09
busselton,70,AU,1624738916,62,-33.65,115.3333,57.04,24.63
grimshaw,40,CA,1624738916,37,56.1834,-117.6027,86.7,6.91
mareeba,81,AU,1624738917,98,-17.0,145.4333,65.12,2.73
georgetown,20,MY,1624738917,88,5.4112,100.3354,79.9,2.3
hithadhoo,100,MV,1624738917,70,-0.6,73.0833,82.92,12.82
semporna,54,MY,1624738918,80,4.4818,118.6112,75.4,0.31
maragogi,99,BR,1624738918,72,-9.0122,-35.2225,74.48,9.48
pevek,100,RU,1624738919,59,69.7008,170.3133,41.65,9.6
tudela,84,ES,1624738919,75,42.0617,-1.6045,77.9,12.86
severo-kurilsk,82,RU,1624738920,89,50.6789,156.125,45.59,15.19
hasaki,100,JP,1624738920,87,35.7333,140.8333,70.29,3.65
grindavik,75,IS,1624738920,93,63.8424,-22.4338,55.56,18.41
sarahan,1,IN,1624738921,67,31.5167,77.8,60.21,3.71
norman wells,40,CA,1624738921,34,65.282,-126.8329,80.64,5.75
kavieng,100,PG,1624738922,75,-2.5744,150.7967,81.07,3.31
krusevac,0,RS,1624738923,92,43.58,21.3339,72.12,3.33
venado tuerto,9,AR,1624738923,42,-33.7456,-61.9688,52.9,15.68
hudiksvall,76,SE,1624738924,72,61.729,17.1036,63.52,4.41
viedma,66,AR,1624738826,67,-40.8135,-62.9967,47.53,19.66
khatanga,93,RU,1624738924,51,71.9667,102.5,47.48,6.87
belyy gorodok,53,RU,1624738925,76,56.965,37.5125,70.72,3.24
datong,64,CN,1624738837,44,40.0936,113.2914,72.25,3.09
mount isa,5,AU,1624738925,62,-20.7333,139.5,49.77,10.36
pisco,0,PE,1624738926,64,-13.7,-76.2167,68.05,8.05
cape town,40,ZA,1624738727,68,-33.9258,18.4232,57.61,1.99
palmas,0,BR,1624738926,40,-10.2128,-48.3603,89.47,5.75
shimoda,100,JP,1624738927,82,34.6667,138.95,71.17,4.59
hilo,1,US,1624738927,64,19.7297,-155.09,82.8,6.91
cidreira,100,BR,1624738928,96,-30.1811,-50.2056,61.93,10.96
faanui,7,PF,1624738928,76,-16.4833,-151.75,80.71,8.88
tuatapere,100,NZ,1624738929,92,-46.1333,167.6833,42.82,3.38
nara,100,JP,1624738881,76,34.6851,135.8049,72.5,3.78
maku,54,IR,1624738929,32,39.2911,44.4521,73.51,2.51
savelugu,100,GH,1624738930,74,9.6244,-0.8253,79.18,4.23
znin,0,PL,1624738930,74,52.8496,17.7199,66.15,7.67
chokurdakh,100,RU,1624738931,55,70.6333,147.9167,60.76,7.25
vaini,20,TO,1624738931,78,-21.2,-175.2,71.76,12.66
axim,100,GH,1624738932,85,4.8699,-2.2405,77.4,2.08
verkhoyansk,47,RU,1624738932,48,67.5447,133.385,73.51,4.23
provideniya,100,RU,1624738932,85,64.3833,-173.3,46.06,11.65
port lincoln,13,AU,1624738933,87,-34.7333,135.8667,54.3,8.68
scarborough,39,GB,1624738933,83,54.2797,-0.4044,58.78,1.01
suntar,100,RU,1624738934,74,62.1444,117.6319,63.14,3.53
yerbogachen,100,RU,1624738934,92,61.2767,108.0108,54.27,6.73
mar del plata,90,AR,1624738935,60,-38.0023,-57.5575,53.01,1.01
aswan,0,EG,1624738935,19,24.0934,32.907,91.33,11.59
kavaratti,58,IN,1624738936,74,10.5669,72.642,82.47,14.29
port-gentil,75,GA,1624738936,83,-0.7193,8.7815,76.96,10.36
porto seguro,40,BR,1624738936,57,-16.4497,-39.0647,75.72,8.05
vuktyl,100,RU,1624738937,83,63.8567,57.3094,57.7,2.48
lively,100,CA,1624738759,83,46.4334,-81.1498,72.52,8.61
kailua,20,US,1624738710,57,21.4022,-157.7394,85.06,6.91
faridabad,1,IN,1624738747,40,28.4333,77.3167,94.48,5.5
tezu,100,IN,1624738938,99,27.9167,96.1667,76.57,2.21
east london,4,ZA,1624738938,65,-33.0153,27.9116,59.7,14.79
iqaluit,75,CA,1624738938,70,63.7506,-68.5145,40.73,8.01
cherskiy,100,RU,1624738939,38,68.75,161.3,68.14,6.02
anahuac,55,MX,1624738939,24,27.2333,-100.15,98.1,21.18
whitehorse,75,CA,1624738940,46,60.7161,-135.0538,70.57,11.99
butaritari,100,KI,1624738940,79,3.0707,172.7902,81.21,12.93
yeysk,44,RU,1624738941,82,46.6989,38.2792,71.96,7.99
cayenne,20,GF,1624738880,76,4.9333,-52.3333,86.04,5.01
dikson,20,RU,1624738941,87,73.5069,80.5464,32.32,2.24
punta arenas,0,CL,1624738942,81,-53.15,-70.9167,39.31,6.91
namibe,31,AO,1624738942,84,-15.1961,12.1522,67.6,4.45
gucheng,20,CN,1624738943,55,35.9115,111.3192,77.85,3.11
brae,100,GB,1624738943,80,60.3964,-1.353,51.71,12.75
tlapacoyan,82,MX,1624738943,68,19.9667,-97.2167,83.62,5.61
beloha,4,MG,1624738944,79,-25.1667,45.05,63.93,3.98
bengkulu,37,ID,1624738944,90,-3.8004,102.2655,74.84,4.03
jacareacanga,85,BR,1624738945,43,-6.2222,-57.7528,90.55,1.88
vila franca do campo,60,PT,1624738811,88,37.7167,-25.4333,68.41,10.04
ixtapa,75,MX,1624738945,62,20.7,-105.2,86.23,6.91
ancud,6,CL,1624738946,70,-41.8697,-73.8203,47.73,5.46
esperance,0,AU,1624738946,61,-33.8667,121.9,50.99,15.43
santa ana,1,US,1624738672,55,33.7456,-117.8678,101.05,1.01
vilhena,40,BR,1624738946,48,-12.7406,-60.1458,86.22,9.22
gamba,84,GA,1624738947,94,-2.65,10.0,72.39,5.64
katsuura,100,JP,1624738947,83,35.1333,140.3,74.1,8.66
nichinan,100,JP,1624738948,96,31.6,131.3667,68.76,7.34
gold coast,100,AU,1624738942,74,-28.0,153.4333,55.0,1.99
terra santa,51,BR,1624738948,53,-2.1042,-56.4869,87.51,4.25
westport,90,US,1624738949,80,41.1415,-73.3579,83.08,1.01
nanortalik,99,GL,1624738949,87,60.1432,-45.2371,47.66,2.21
lompoc,20,US,1624738801,76,34.6391,-120.4579,93.22,19.57
qaanaaq,12,GL,1624738950,72,77.484,-69.3632,40.57,4.27
tasiilaq,4,GL,1624738950,61,65.6145,-37.6368,51.96,7.4
te anau,100,NZ,1624738950,92,-45.4167,167.7167,45.63,3.27
salalah,100,OM,1624738951,86,17.0151,54.0924,79.97,6.24
pivijay,89,CO,1624738951,56,10.4617,-74.6162,87.89,4.16
port blair,100,IN,1624738664,76,11.6667,92.75,81.25,9.69
beira,20,MZ,1624738836,100,-19.8436,34.8389,66.29,5.75
lagoa,34,PT,1624738952,76,39.05,-27.9833,67.12,10.22
huanren,100,CN,1624738952,99,41.2647,125.3667,62.44,2.48
carbonia,0,IT,1624738953,66,39.1672,8.5222,75.85,4.5
abnub,0,EG,1624738954,23,27.2696,31.1511,88.02,7.36
arraial do cabo,0,BR,1624738954,73,-22.9661,-42.0278,73.36,16.11
nemuro,53,JP,1624738954,98,43.3236,145.575,51.46,6.91
port hardy,1,CA,1624738955,61,50.6996,-127.4199,77.18,3.44
hearst,100,CA,1624738713,34,49.6835,-83.6665,77.25,4.54
haines junction,99,CA,1624738955,49,60.7522,-137.5108,67.95,5.75
willmar,1,US,1624738582,76,45.1219,-95.0433,73.78,6.91
mujiayingzi,0,CN,1624738956,82,42.1167,118.7833,62.83,3.65
new norfolk,100,AU,1624738957,84,-42.7826,147.0587,48.58,1.01
lavrentiya,100,RU,1624738957,86,65.5833,-171.0,43.81,8.93
falmouth,75,GB,1624738957,34,50.1544,-5.0711,57.85,3.0
te karaka,100,NZ,1624738958,84,-38.4654,177.8679,60.57,7.25
keflavik,75,IS,1624738958,93,64.0049,-22.5624,56.52,18.41
hofn,64,IS,1624738959,62,64.2539,-15.2082,53.51,12.88
saldanha,80,ZA,1624738754,76,-33.0117,17.9442,53.65,7.14
airai,91,TL,1624738959,95,-8.9266,125.4092,58.33,4.27
rio grande,100,BR,1624738918,98,-32.035,-52.0986,60.91,13.06
bad doberan,10,DE,1624738960,82,54.1071,11.9005,64.99,4.16
saint-philippe,26,RE,1624738960,80,-21.3585,55.7679,67.59,8.72
bilibino,100,RU,1624738961,32,68.0546,166.4372,63.75,0.2
vostok,100,RU,1624738961,89,46.4856,135.8833,58.44,3.49
plettenberg bay,97,ZA,1624738962,79,-34.0527,23.3716,55.58,8.12
souillac,75,MU,1624738962,83,-20.5167,57.5167,71.98,10.36
upernavik,100,GL,1624738962,89,72.7868,-56.1549,38.57,11.54
port elizabeth,40,ZA,1624738963,72,-33.918,25.5701,57.49,14.97
drama,49,GR,1624738963,76,41.1544,24.1394,84.43,5.08
aklavik,75,CA,1624738964,67,68.2191,-135.0107,61.52,11.5
bredasdorp,100,ZA,1624738964,71,-34.5322,20.0403,56.28,3.44
kaitangata,100,NZ,1624738964,91,-46.2817,169.8464,44.76,4.16
sycow,13,PL,1624738965,80,51.3081,17.7198,65.35,2.13
bilma,1,NE,1624738965,10,18.6853,12.9164,96.12,9.91
novo aripuana,93,BR,1624738965,61,-5.1206,-60.3797,86.16,2.1
ossora,90,RU,1624738966,86,59.2353,163.0719,49.66,4.0
bambous virieux,75,MU,1624738966,83,-20.3428,57.7575,71.85,10.36
mwinilunga,0,ZM,1624738967,44,-11.7358,24.4293,59.7,3.91
poum,96,NC,1624738967,75,-20.2333,164.0167,73.96,16.84
valdivia,6,CL,1624738968,72,-39.8142,-73.2459,39.29,3.22
cordoba,20,AR,1624738694,34,-31.4135,-64.1811,55.42,10.0
raudeberg,95,NO,1624738968,90,61.9875,5.1352,52.47,8.7
dingle,100,PH,1624738969,90,10.9995,122.6711,75.81,2.39
chuy,100,UY,1624738969,93,-33.6971,-53.4616,56.28,3.83
tual,100,ID,1624738969,74,-5.6667,132.75,80.67,21.52
duluth,20,US,1624738921,63,46.7833,-92.1066,78.06,9.22
tessalit,0,ML,1624738970,6,20.1986,1.0114,98.87,8.46
totskoye,3,RU,1624738755,64,52.5248,52.7623,75.63,3.94
luderitz,0,NA,1624738971,64,-26.6481,15.1594,56.62,8.52
bubaque,100,GW,1624738971,88,11.2833,-15.8333,77.22,12.08
ostrovnoy,65,RU,1624738971,86,68.0531,39.5131,44.11,3.42
kubachi,99,RU,1624738753,43,42.086,47.6034,64.94,7.18
kupang,100,ID,1624738972,83,-10.1667,123.5833,77.27,9.15
mamallapuram,100,IN,1624738973,66,12.6264,80.1722,84.06,11.79
ukiah,1,US,1624738973,29,39.1502,-123.2078,110.12,4.61
tagab,1,AF,1624738974,41,34.855,69.6492,75.11,3.53
gazimurskiy zavod,26,RU,1624738974,92,51.5461,118.3266,58.35,2.28
mabaruma,51,GY,1624738975,92,8.2,-59.7833,79.34,5.14
artyom,8,AZ,1624738975,56,40.4723,50.333,77.14,5.19
kyabram,97,AU,1624738975,77,-36.3167,145.05,47.88,7.52
puerto escondido,90,MX,1624738976,61,15.85,-97.0667,81.43,11.5
marabba,52,SD,1624738976,43,12.35,32.1833,90.64,12.21
zhanaozen,6,KZ,1624738976,19,43.3,52.8,92.34,11.45
marsh harbour,100,BS,1624738977,69,26.5412,-77.0636,82.22,14.88
kangalassy,33,RU,1624738977,60,62.3464,129.9628,60.73,3.13
malakal,100,SS,1624738978,61,9.5334,31.6605,81.54,3.49
aksarka,87,RU,1624738978,64,66.5606,67.7975,48.4,7.49
wad rawah,100,SD,1624738979,24,15.1603,33.1397,94.5,9.33
comodoro rivadavia,20,AR,1624738979,53,-45.8667,-67.5,46.26,10.36
taoudenni,3,ML,1624738980,8,22.6783,-3.9836,105.75,6.17
guerrero negro,10,MX,1624738980,60,27.9769,-114.0611,74.62,15.86
san matias,20,BO,1624738981,23,-16.3667,-58.4,96.53,8.01
saint pete beach,40,US,1624738981,65,27.7253,-82.7412,92.21,1.01
san patricio,66,US,1624738981,58,28.017,-97.5169,95.09,18.39
tabou,62,CI,1624738982,87,4.423,-7.3528,77.2,6.17
xai-xai,0,MZ,1624738982,89,-25.0519,33.6442,70.16,9.75
sabang,100,ID,1624738983,80,5.8933,95.3214,77.86,21.61
moose factory,1,CA,1624738983,77,51.2585,-80.6094,66.2,12.66
shelburne,100,CA,1624738984,92,44.0787,-80.2041,76.89,15.52
bathsheba,40,BB,1624738984,58,13.2167,-59.5167,84.81,20.71
pangnirtung,100,CA,1624738985,94,66.1451,-65.7125,41.79,5.08
ust-nera,7,RU,1624738985,52,64.5667,143.2,68.72,2.77
kaseda,100,JP,1624738986,89,31.4167,130.3167,68.85,13.6
los llanos de aridane,20,ES,1624738986,86,28.6585,-17.9182,65.95,16.11
usinsk,100,RU,1624738987,70,65.9939,57.5281,57.61,3.42
jardim,0,BR,1624738987,28,-21.4803,-56.1381,88.34,9.33
ribeira grande,40,PT,1624738988,73,38.5167,-28.7,70.2,11.5
naryan-mar,100,RU,1624738988,89,67.6713,53.087,50.5,11.32
port macquarie,0,AU,1624738989,73,-31.4333,152.9167,40.37,4.7
paamiut,97,GL,1624738818,98,61.994,-49.6678,42.89,9.6
tautira,0,PF,1624738989,76,-17.7333,-149.15,84.22,6.64
beatrice,90,US,1624738990,73,40.2681,-96.747,75.18,11.5
mahebourg,75,MU,1624738990,83,-20.4081,57.7,71.89,10.36
edgewater,40,US,1624738991,70,28.9889,-80.9023,88.0,11.5
new ulm,40,US,1624738991,93,44.3125,-94.4605,70.3,8.05
saint-augustin,100,CA,1624738991,85,51.226,-58.6502,62.04,17.25
egvekinot,72,RU,1624738992,50,66.3167,-179.1667,43.36,2.75
onokhino,63,RU,1624738992,96,56.925,65.5394,62.92,2.98
taraz,3,KZ,1624738834,20,42.9,71.3667,73.81,11.18
jinchang,0,CN,1624738993,57,38.4953,102.1739,68.95,4.41
tsumeb,8,NA,1624738993,24,-19.2333,17.7167,58.55,4.81
rorvik,100,NO,1624738994,78,64.8621,11.2373,51.67,13.09
sangar,39,RU,1624738994,62,63.9242,127.4739,64.45,1.25
makakilo city,40,US,1624738994,53,21.3469,-158.0858,82.72,10.36
hami,84,CN,1624738995,20,42.8,93.45,80.08,7.92
mount gambier,40,AU,1624738995,100,-37.8333,140.7667,46.31,5.75
dwarka,88,IN,1624738996,65,22.2394,68.9678,84.52,15.17
enumclaw,0,US,1624738737,53,47.2043,-121.9915,100.15,1.01
tieli,17,CN,1624738996,90,46.95,128.05,59.31,2.37
lasa,71,IT,1624738997,89,46.6166,10.7002,69.71,2.1
vanimo,99,PG,1624738997,91,-2.6741,141.3028,76.1,5.37
nishihara,90,JP,1624738998,94,26.1842,127.7558,80.65,14.97
salina cruz,98,MX,1624738998,67,16.1667,-95.2,85.5,9.64
leningradskiy,91,RU,1624738998,52,69.3833,178.4167,49.75,3.2
dundalk,75,US,1624738999,71,39.2507,-76.5205,89.08,4.0
naze,100,JP,1624738999,91,28.3667,129.4833,76.66,12.03
sur,0,OM,1624739000,57,22.5667,59.5289,85.53,18.21
sawakin,61,SD,1624739000,48,19.1059,37.3321,89.74,3.53
petropavlovsk-kamchatskiy,75,RU,1624739001,100,53.0452,158.6483,48.79,8.95
koulamoutou,82,GA,1624739001,95,-1.1303,12.4736,71.71,2.35
panambi,100,BR,1624739001,82,-28.2925,-53.5017,66.83,7.72
anadyr,40,RU,1624739002,66,64.75,177.4833,48.7,8.95
columbia,40,US,1624738516,52,34.0007,-81.0348,91.74,1.99
dubbo,5,AU,1624739002,93,-32.25,148.6167,39.33,4.61
kampong thum,27,KH,1624739003,83,12.7111,104.8887,77.63,2.91
broome,20,US,1624739003,58,42.2506,-75.833,87.84,1.99
nioro,100,GM,1624739004,78,13.35,-15.75,79.83,9.98
la asuncion,54,VE,1624739004,74,11.0333,-63.8628,85.73,18.41
baykit,100,RU,1624739004,94,61.67,96.37,49.75,3.71
korla,0,CN,1624738896,19,41.7597,86.1469,76.89,13.35
araouane,48,ML,1624739005,15,18.9048,-3.5265,98.65,7.38
clyde river,90,CA,1624739005,93,70.4692,-68.5914,35.83,21.85
diamantino,9,BR,1624738842,26,-14.4086,-56.4461,92.57,7.61
ahipara,100,NZ,1624739006,86,-35.1667,173.1667,61.34,13.22
alindao,83,CF,1624739006,68,5.0267,21.2088,77.36,3.2
chegdomyn,35,RU,1624739007,97,51.1167,133.0167,58.08,0.83
nakamura,100,JP,1624739007,96,32.9833,132.9333,68.0,1.86
ambon,40,ID,1624739008,94,-3.6954,128.1814,75.34,5.75
balucuc,96,PH,1624739008,85,14.9636,120.8378,82.38,3.49
karratha,100,AU,1624739009,46,-20.7377,116.8463,63.79,8.03
richards bay,0,ZA,1624739009,68,-28.783,32.0377,62.55,0.18
linqiong,100,CN,1624739010,85,30.4159,103.4609,75.02,1.68
cabedelo,41,BR,1624739010,72,-6.9811,-34.8339,79.47,19.48
bogande,69,BF,1624739011,35,12.9714,-0.1436,94.12,10.45
humaita,94,BR,1624739011,62,-7.5061,-63.0208,83.98,3.11
stornoway,96,GB,1624739012,82,58.2093,-6.3865,54.93,6.91
albion,75,US,1624739012,77,42.2431,-84.753,82.58,13.8
flowing wells,20,US,1624738756,11,32.294,-111.0098,104.38,1.01
avera,43,US,1624739012,38,33.194,-82.5271,92.91,9.22
sorong,76,ID,1624739013,82,-0.8833,131.25,79.34,3.98
waipawa,100,NZ,1624739013,85,-41.4122,175.5153,57.04,12.37
fairbanks,90,US,1624738814,53,64.8378,-147.7164,66.22,3.0
balabac,100,PH,1624739014,75,7.9868,117.0645,82.51,6.96
sabinas hidalgo,56,MX,1624739014,24,26.5,-100.1667,101.52,13.51
lumphat,89,KH,1624739015,97,13.4878,106.9816,73.65,1.14
vila velha,20,BR,1624739015,73,-20.3297,-40.2925,73.35,8.05
huarmey,1,PE,1624739016,68,-10.0681,-78.1522,69.3,10.31
george,90,ZA,1624739016,71,-33.963,22.4617,51.35,4.61
valparaiso,20,CL,1624738783,59,-33.0393,-71.6273,56.84,8.05
adrar,5,MR,1624738749,12,20.5022,-10.0711,97.39,8.59
okha,18,RU,1624739017,82,53.5739,142.9478,46.35,8.97
nome,90,US,1624739018,71,64.5011,-165.4064,55.47,16.11
yzeure,99,FR,1624739018,78,46.5644,3.355,67.98,6.04
angoche,0,MZ,1624739018,73,-16.2325,39.9086,73.24,8.28
college,75,US,1624739019,53,64.8569,-147.8028,67.21,4.61
havre-saint-pierre,90,CA,1624739019,73,50.2334,-63.5986,68.36,8.05
qaqortoq,100,GL,1624739020,90,60.7167,-46.0333,63.1,2.33
sabha,0,LY,1624739020,11,27.0377,14.4283,94.39,15.37
coruripe,81,BR,1624739020,73,-10.1256,-36.1756,73.98,7.94
naifaru,100,MV,1624739021,75,5.4444,73.3657,82.24,12.8
sakakah,0,SA,1624739021,12,29.9697,40.2064,90.97,8.77
malindi,81,KE,1624739022,76,-3.2175,40.1191,76.33,17.47
jumla,100,NP,1624739022,91,29.2747,82.1838,58.87,2.26
sambava,33,MG,1624739023,89,-14.2667,50.1667,69.67,9.71
santa isabel do rio negro,21,BR,1624739023,71,-0.4139,-65.0192,84.63,3.06
kuznetsk,67,RU,1624739024,90,53.1167,46.6004,63.46,3.76
buk,71,PL,1624739024,62,52.3553,16.5196,68.95,5.93
laredo,1,US,1624738916,33,27.5064,-99.5075,102.2,17.27
suicheng,97,CN,1624739025,85,33.8963,117.9331,76.26,2.13
manta,75,EC,1624738879,73,-0.95,-80.7333,76.78,6.91
tiksi,100,RU,1624739025,87,71.6872,128.8694,34.41,9.22
purranque,7,CL,1624739026,79,-40.9167,-73.1667,47.86,2.24
atambua,68,ID,1624739026,89,-9.1061,124.8925,71.38,5.17
dharchula,69,IN,1624739027,90,29.85,80.5333,69.3,2.35
tanuku,100,IN,1624739027,78,16.75,81.7,81.77,9.06
san isidro,90,PE,1624739028,82,-12.1167,-77.05,65.79,5.75
lata,19,PT,1624739028,84,40.1629,-8.3327,63.91,5.12
den helder,62,NL,1624739029,88,52.9599,4.7593,66.94,9.22
niksic,4,ME,1624738817,70,42.7731,18.9445,75.07,3.74
saint-pierre,75,RE,1624739029,73,-21.3393,55.4781,67.68,5.75
faya,98,SA,1624739029,16,18.3851,42.4509,75.31,6.85
arman,29,RU,1624739030,79,59.7,150.1667,58.89,1.7
shenjiamen,100,CN,1624739030,98,29.9576,122.298,74.08,6.55
saint-francois,0,FR,1624739031,69,46.4154,3.9054,67.44,6.91
chaiyaphum,91,TH,1624739031,78,15.75,102.0,84.06,4.23
riyadh,0,SA,1624739031,10,24.6877,46.7219,93.34,1.92
yumen,86,CN,1624739032,36,40.2833,97.2,74.19,8.01
vardo,75,NO,1624739032,81,70.3705,31.1107,46.38,4.61
natal,0,BR,1624739033,69,-5.795,-35.2094,81.25,19.57
bethal,0,ZA,1624739033,36,-26.4579,29.4655,44.55,4.0
mehamn,100,NO,1624739033,87,71.0357,27.8492,46.85,3.04
kuchera,80,IN,1624739034,49,26.9839,73.9719,87.57,14.54
srednekolymsk,70,RU,1624739034,33,67.45,153.6833,74.32,7.05
umm lajj,0,SA,1624739035,39,25.0213,37.2685,87.89,9.04
cururupu,12,BR,1624739035,72,-1.8283,-44.8683,81.07,4.14
galle,100,LK,1624739035,85,6.0367,80.217,78.91,14.34
narsaq,100,GL,1624739036,87,60.9167,-46.05,62.82,4.45
melo,100,UY,1624739036,98,-32.3667,-54.1833,54.1,2.66
alexandria,0,EG,1624739037,83,31.2156,29.9553,78.76,8.05
flinders,0,AU,1624739037,69,-34.5833,150.8552,52.18,1.99
kintampo,100,GH,1624739037,80,8.0563,-1.7306,74.46,1.7
beringovskiy,9,RU,1624739038,81,63.05,179.3167,39.92,7.74
ostersund,20,SE,1624738789,67,63.1792,14.6357,60.62,12.66
castro,0,BR,1624739038,75,-24.7911,-50.0119,66.65,7.07
daru,94,PG,1624739039,88,-9.0763,143.2092,76.53,11.86
kampene,12,CD,1624739039,50,-3.6,26.6667,71.82,1.07
kansanshi,3,ZM,1624739040,51,-12.0951,26.4273,56.21,2.66
vao,100,NC,1624739040,68,-22.6667,167.4833,73.15,14.99
udimskiy,13,RU,1624739041,70,61.1417,45.9144,65.34,1.54
trairi,3,BR,1624738999,70,-3.2778,-39.2689,80.28,9.82
geesthacht,12,DE,1624739041,86,53.4333,10.3667,69.69,3.8
diu,45,IN,1624739042,72,20.7141,70.9822,83.39,16.17
kumhari,94,IN,1624739042,68,21.2667,81.5167,84.36,3.49
gunjur,75,GM,1624739043,83,13.2019,-16.7339,82.47,0.0
opuwo,5,NA,1624739043,28,-18.0607,13.84,62.35,4.47
margate,100,GB,1624739044,93,51.3813,1.3862,62.31,3.0
pochutla,96,MX,1624739044,52,15.7432,-96.4661,85.82,7.85
kieta,59,PG,1624739045,84,-6.2167,155.6333,78.04,3.89
lae,12,PG,1624739045,87,-6.7221,146.9847,74.07,5.73
san quintin,1,MX,1624739046,66,30.4833,-115.95,72.68,16.6
houma,75,US,1624739046,64,29.5958,-90.7195,91.0,11.5
serebryanyy bor,46,RU,1624739046,94,56.8,124.8,57.25,1.16
khalabat,1,PK,1624739047,44,34.06,72.8894,82.89,4.54
mudgee,98,AU,1624739047,100,-32.5943,149.5871,39.25,1.14
san cristobal,52,VE,1624739048,77,7.7669,-72.225,77.18,3.51
vila,100,PT,1624739048,84,42.0304,-8.1588,60.75,3.74
tursunzoda,0,TJ,1624739049,19,38.5144,68.2333,72.48,3.8
kushiro,0,JP,1624739049,91,42.975,144.3747,57.61,5.68
harper,88,LR,1624739050,87,4.375,-7.7169,77.25,6.78
coquimbo,40,CL,1624739050,77,-29.9533,-71.3436,58.73,9.22
bellview,1,US,1624739051,64,30.4616,-87.315,90.63,12.66
acarau,3,BR,1624739051,72,-2.8856,-40.12,80.53,10.63
tari,99,NG,1624739052,56,12.4086,4.4914,86.54,14.79
enshi,80,CN,1624739052,97,30.3,109.4833,73.49,0.54
sharya,11,RU,1624739053,80,58.3686,45.5144,67.89,2.91
tampin,66,MY,1624739053,87,2.4701,102.2302,76.53,1.32
rurrenabaque,75,BO,1624739053,83,-14.4413,-67.5278,82.29,0.0
keti bandar,73,PK,1624739054,73,24.1447,67.4497,82.99,16.93
alice springs,0,AU,1624738919,93,-23.7,133.8833,31.55,0.0
hirtshals,14,DK,1624739054,92,57.5881,9.9592,58.86,18.25
port moresby,20,PG,1624739055,94,-9.4431,147.1797,72.82,3.87
manggar,41,ID,1624739055,78,-2.8833,108.2667,81.45,7.4
arlit,7,NE,1624739056,9,18.7369,7.3853,96.49,14.36
tromso,75,NO,1624738778,87,69.6496,18.957,48.85,10.36
wilkie,17,CA,1624739056,41,52.4168,-108.7014,79.18,8.41
shubarkuduk,67,KZ,1624739057,51,49.1447,56.4872,75.2,4.45
conakry,75,GN,1624739057,83,9.538,-13.6773,80.67,11.5
kudahuvadhoo,98,MV,1624739058,72,2.6708,72.8944,82.65,9.95
yamada,100,JP,1624739058,91,39.4667,141.95,64.29,3.22
ulladulla,0,AU,1624739059,81,-35.35,150.4667,51.1,6.49
alofi,40,NU,1624739059,73,-19.0595,-169.9187,73.29,18.41
mildura,24,AU,1624739059,93,-34.2,142.15,42.76,4.61
netivot,0,IL,1624739060,72,31.4222,34.5886,77.61,2.59
maine-soroa,10,NE,1624739060,18,13.2114,12.0241,96.82,5.86
tabing,99,PH,1624739061,81,11.4,124.35,80.33,7.92
bapatla,100,IN,1624739061,73,15.9,80.4667,83.05,10.85
sisimiut,99,GL,1624739061,81,66.9395,-53.6735,44.2,4.5
buala,80,SB,1624739062,82,-8.145,159.5921,79.56,7.76
marsabit,25,KE,1624739062,52,2.3284,37.9899,68.36,18.54
doha,0,QA,1624738958,35,25.2867,51.5333,96.78,3.44
kochi,100,IN,1624739063,85,9.9399,76.2602,75.18,7.52
kimbe,93,PG,1624739063,93,-5.5502,150.1429,74.25,3.11
abu dhabi,0,AE,1624738873,31,24.4667,54.3667,96.91,4.61
havoysund,100,NO,1624739064,87,70.9963,24.6622,45.48,1.79
brigantine,40,US,1624738960,82,39.4101,-74.3646,85.32,10.36
atherton,38,GB,1624739065,73,53.5237,-2.4935,63.55,8.81
hualmay,7,PE,1624739065,71,-11.0964,-77.6139,67.64,9.78
clinton,75,US,1624739004,75,42.587,-82.9199,85.05,1.99
paita,10,PE,1624739066,72,-5.0892,-81.1144,77.56,14.67
piacabucu,68,BR,1624739066,73,-10.4056,-36.4344,74.8,8.14
pregradnaya,80,RU,1624739067,96,43.9508,41.1994,62.85,3.65
la ligua,16,CL,1624739067,55,-32.4524,-71.2311,55.18,5.75
acari,21,PE,1624739068,57,-15.4311,-74.6158,71.46,7.74
kirakira,86,SB,1624739068,82,-10.4544,161.9205,78.39,12.75
cristalina,0,BR,1624739069,28,-16.7686,-47.6136,69.91,8.5
kalangala,59,UG,1624739069,59,-0.3089,32.225,74.73,6.2
awjilah,0,LY,1624738978,23,29.1081,21.2869,91.4,14.74
saint george,1,US,1624739019,15,37.1041,-113.5841,100.63,5.01
hobyo,58,SO,1624739070,82,5.3505,48.5268,77.85,28.39
abu kamal,0,SY,1624739070,18,34.4506,40.9171,95.25,11.97
barra do garcas,0,BR,1624739071,40,-15.89,-52.2567,91.98,3.44
tarauaca,100,BR,1624739071,67,-8.1614,-70.7656,82.11,2.04
moree,0,AU,1624739072,93,-29.4667,149.85,39.22,4.61
klaksvik,1,FO,1624739072,80,62.2266,-6.589,47.32,9.71
isabela,96,PH,1624739072,85,6.7085,121.9711,78.13,1.41
siilinjarvi,0,FI,1624739073,68,63.0833,27.6667,71.62,4.61
victor harbor,90,AU,1624739073,93,-35.5667,138.6167,55.9,8.23
kloulklubed,100,PW,1624739074,71,7.0419,134.2556,75.7,5.82
sao filipe,46,CV,1624739074,77,14.8961,-24.4956,78.01,8.93
mpanda,2,TZ,1624739074,51,-6.3655,31.0409,64.42,0.51
copala,100,MX,1624739075,75,16.65,-98.9833,77.86,6.13
sala consilina,0,IT,1624739075,68,40.3912,15.5989,71.38,0.25
sarakhs,0,IR,1624739076,18,36.5449,61.1577,77.14,4.61
aketi,86,CD,1624739076,64,2.7388,23.7833,78.13,2.24
geraldton,0,AU,1624739077,76,-28.7667,114.6,46.81,17.27
rogozno,1,PL,1624739077,72,52.7523,16.9905,69.13,7.63
urumqi,0,CN,1624739077,39,43.801,87.6005,61.75,8.95
srivardhan,100,IN,1624738804,78,18.0333,73.0167,80.89,4.45
fuerte olimpo,0,PY,1624739078,25,-21.0415,-57.8738,94.01,10.6
nador,0,MA,1624739078,83,35.174,-2.9287,71.67,0.0
uga,100,NG,1624739079,87,5.9358,7.0793,72.63,2.39
wuxue,99,CN,1624739079,93,29.8506,115.5525,77.72,2.15
bereda,100,ES,1624739080,98,43.2686,-7.5406,58.14,2.89
muros,100,ES,1624739080,76,42.7762,-9.0603,64.09,8.37
hetauda,96,NP,1624739080,86,27.4284,85.0322,75.16,3.91
kahului,20,US,1624739081,69,20.8947,-156.47,84.22,14.97
kismayo,94,SO,1624739081,81,-0.3582,42.5454,77.0,15.48
minot,20,US,1624738869,44,48.2325,-101.2963,79.02,7.76
kiboga,15,UG,1624739082,73,0.9161,31.7742,65.26,3.53
mpongwe,15,ZM,1624739082,45,-13.5091,28.155,58.53,5.82
south river,88,US,1624739083,70,40.4465,-74.386,86.63,1.01
vanavara,63,RU,1624739083,94,60.34,102.2797,49.91,5.73
port augusta,0,AU,1624739084,80,-32.5,137.7667,50.14,2.42
kathu,17,TH,1624739084,74,7.9178,98.3332,86.63,10.63
goksun,1,TR,1624739085,62,38.021,36.4973,72.55,5.88
zeya,98,RU,1624739085,96,53.75,127.2667,60.98,3.13
kodinsk,2,RU,1624739085,97,58.6881,99.1844,48.18,4.85
macomer,0,IT,1624739086,38,40.262,8.7699,66.38,1.72
gorin,100,RU,1624739087,97,51.1983,136.6669,54.0,2.93
jurilovca,2,RO,1624739087,65,44.7667,28.8667,72.63,7.9
kamenka,61,RU,1624739088,74,51.3223,42.7678,70.84,7.99
denizli,0,TR,1624738909,38,37.8402,29.0698,83.25,5.14
charlestown,0,AU,1624739088,81,-32.95,151.6667,49.41,1.99
kokoda,41,PG,1624739089,95,-8.8785,147.7407,71.22,1.36
kirovo-chepetsk,7,RU,1624739089,83,58.5539,50.0399,64.2,4.0
darhan,100,MN,1624739089,77,49.4867,105.9228,63.37,3.8
gat,0,IL,1624739090,74,31.61,34.7642,79.39,1.16
yatou,91,CN,1624739090,95,37.15,122.3833,68.27,7.96
santa vitoria do palmar,100,BR,1624739091,94,-33.5189,-53.3681,56.21,3.91
ngunguru,100,NZ,1624739091,83,-35.6167,174.5,61.16,15.7
akhmim,0,EG,1624739092,21,26.5622,31.745,89.8,7.96
aden,67,YE,1624738814,59,12.7794,45.0367,87.85,8.5
sao domingos,0,BR,1624739092,23,-13.3983,-46.3183,80.38,6.51
mirabad,0,AF,1624739093,12,30.4362,61.8383,87.51,17.58
aripuana,100,BR,1624739093,54,-9.1667,-60.6333,83.91,1.39
mayor pablo lagerenza,0,PY,1624739094,20,-19.9309,-60.7718,95.79,13.33
farmington,1,US,1624738972,22,36.7281,-108.2187,84.88,18.41
chervone,79,UA,1624739094,96,49.9564,28.8645,63.32,6.91
camacha,40,PT,1624739095,64,33.0833,-16.3333,68.54,10.36
asau,65,RO,1624739095,88,46.4333,26.4,70.72,3.85
aleksandrov gay,25,RU,1624739096,37,50.147,48.5704,83.93,6.38
praia,98,CV,1624738800,83,14.9215,-23.5087,77.54,11.5
bayeux,0,BR,1624739016,69,-7.125,-34.9322,79.43,13.8
kikwit,87,CD,1624739096,32,-5.041,18.8162,82.15,2.42
harnai,7,PK,1624739097,42,30.1005,67.9374,86.13,1.63
vydrino,100,RU,1624739097,95,51.485,104.8461,51.98,2.06
milkovo,100,RU,1624739098,95,54.7167,158.6167,46.33,0.47
husavik,7,IS,1624739098,68,66.0449,-17.3389,67.91,7.9
talaya,4,RU,1624739098,52,61.3833,152.75,63.27,0.11
skelleftea,11,SE,1624739099,51,64.7507,20.9528,62.96,4.61
hundorp,100,NO,1624739099,88,61.5552,9.9407,62.94,4.32
labuhan,69,ID,1624739099,88,-6.8844,112.2051,77.56,5.44
kargasok,58,RU,1624739100,64,59.0556,80.8572,51.57,3.42
port hedland,90,AU,1624739100,45,-20.3167,118.5667,64.45,12.66
wuwei,38,CN,1624739101,64,37.9281,102.6414,65.12,3.36
bonoua,100,CI,1624739101,89,5.2741,-3.595,74.82,4.23
ipixuna,100,BR,1624739101,75,-1.7625,-48.8043,78.75,4.21
ayan,100,RU,1624739102,83,56.45,138.1667,50.76,5.3
walvis bay,0,NA,1624739104,32,-22.9575,14.5053,67.15,10.36
benghazi,0,LY,1624739104,62,32.1167,20.0667,81.82,12.15
petatlan,100,MX,1624739105,89,17.5167,-101.2667,76.8,10.74
carangola,3,BR,1624739105,75,-20.7331,-42.0294,67.62,2.42
chau doc,15,VN,1624739105,88,10.7,105.1167,78.33,5.17
